timestamp(unix),attitude_roll(radians),attitude_pitch(radians),attitude_yaw(radians),rotation_rate_x(radians/s),rotation_rate_y(radians/s),rotation_rate_z(radians/s),gravity_x(G),gravity_y(G),gravity_z(G),user_acc_x(G),user_acc_y(G),user_acc_z(G),magnetic_field_x(microteslas),magnetic_field_y(microteslas),magnetic_field_z(microteslas),latitude(degree),longitude(degree),altitude(meter),speed(m/s),course(degree),timestamp(unix),User Mark
1532483312,0.052051,0.22417,1.206285,0.163254,-0.579044,-0.066275,0.050725,-0.222297,-0.973658,0.005305,0.007515,0.029658,9.045837,-28.43924,-41.703613,,,,,,,
,,,,,,,,,,,,,,,,42.47384,-83.404935,244.790771,-1,-1,1532483301,
1532483312,0.04032,0.22899,1.205603,0.264406,-0.557897,-0.008064,0.039257,-0.226994,-0.973104,-0.006222,0.004323,-0.001261,8.566772,-28.43042,-41.552856,,,,,,,
,,,,,,,,,,,,,,,,42.47384,-83.404935,244.790771,-1,-1,1532483310,
1532483312,0.032738,0.233507,1.205677,0.180499,-0.256243,0.024011,0.031844,-0.23139,-0.97234,-0.020705,0.007223,-0.023708,8.252441,-28.437592,-41.648499,,,,,,,
1532483312,0.031643,0.234901,1.206332,0.007477,0.053862,0.037622,0.030768,-0.232747,-0.97205,-0.021934,0.004491,-0.033962,8.012695,-28.415924,-41.618225,,,,,,,
,,,,,,,,,,,,,,,,42.473818,-83.404931,244.790771,-1,-1,1532483312,
1532483312,0.034728,0.233685,1.206881,-0.086949,0.200555,0.011245,0.033778,-0.231564,-0.972233,-0.017787,-0.005177,-0.013134,8.153503,-28.51355,-41.402161,,,,,,,
,,,,,,,,,,,,,,,,42.473818,-83.404931,244.790771,-1,-1,1532483312,
1532483312,0.037841,0.231675,1.206916,-0.097219,0.113439,-0.005334,0.036821,-0.229608,-0.972586,-0.011629,-0.004553,-0.008798,8.410217,-28.451935,-41.490784,,,,,,,
1532483312,0.03854,0.230546,1.20679,-0.017027,-0.011831,-0.017418,0.037511,-0.22851,-0.972819,-0.009221,-0.002493,0.006571,8.347351,-28.55365,-41.859253,,,,,,,
1532483312,0.037722,0.231604,1.20601,0.095317,-0.051919,-0.04558,0.036706,-0.229539,-0.972607,-0.000558,-0.006774,0.010983,8.602356,-28.75354,-41.630737,,,,,,,
1532483312,0.037073,0.233908,1.204994,0.1144,-0.030645,-0.041964,0.036055,-0.231781,-0.972099,-0.006148,0.004455,0.013924,8.608032,-28.654388,-41.825378,,,,,,,
1532483312,0.036731,0.235231,1.204238,0.036472,-0.019123,-0.031479,0.035712,-0.233067,-0.971804,0.002908,0.00089,0.009066,8.577759,-28.608185,-41.679688,,,,,,,
1532483312,0.036718,0.235216,1.203786,-0.015976,0.001989,-0.017331,0.035699,-0.233053,-0.971808,0.000236,0.004232,0.020865,8.544495,-28.703827,-41.822327,,,,,,,
1532483312,0.036985,0.234819,1.203383,-0.014819,0.022224,-0.023599,0.035962,-0.232667,-0.971891,0.003436,-0.006377,0.016218,8.687317,-28.765076,-41.681213,,,,,,,
1532483312,0.037576,0.234779,1.202733,0.001387,0.013804,-0.036152,0.036537,-0.232628,-0.971879,0.000268,0.003228,0.02443,8.645264,-28.716888,-41.684448,,,,,,,
1532483312,0.037175,0.234282,1.201775,-0.039795,-0.047852,-0.052049,0.036151,-0.232144,-0.972009,0.006116,-0.005801,0.008417,8.779846,-28.712585,-41.830261,,,,,,,
1532483312,0.036878,0.233073,1.20068,-0.070638,-0.018114,-0.055603,0.035873,-0.230968,-0.9723,0.004288,0.00172,0.026545,8.583801,-28.727631,-41.696838,,,,,,,
1532483312,0.036452,0.231157,1.199902,-0.098721,-0.03315,-0.032716,0.035475,-0.229104,-0.972755,0.005846,-0.000266,0.007621,8.529541,-28.683105,-41.708618,,,,,,,
1532483312,0.036074,0.229729,1.199464,-0.052124,-0.022512,-0.019116,0.035118,-0.227713,-0.973095,0.004509,0.006263,0.022823,8.755188,-28.372681,-41.820129,,,,,,,
1532483312,0.035241,0.229126,1.199178,-0.018119,-0.060758,-0.013423,0.034313,-0.227127,-0.97326,0.005268,-0.001831,0.009561,8.497742,-28.440155,-41.800232,,,,,,,
1532483312,0.034135,0.229222,1.19886,0.013926,-0.058552,-0.019272,0.033236,-0.22722,-0.973276,0.004545,0.000673,0.012537,8.484619,-28.460938,-41.729858,,,,,,,
1532483312,0.032709,0.229263,1.198425,-0.0063,-0.075598,-0.018626,0.031847,-0.22726,-0.973313,0.001173,-0.002613,-0.006225,8.491394,-28.408752,-41.953308,,,,,,,
1532483312,0.03205,0.229038,1.198151,-0.016031,-0.020355,-0.013185,0.031207,-0.22704,-0.973385,-0.007099,-0.00001,0.004284,8.216003,-28.481537,-41.827148,,,,,,,
1532483313,0.031784,0.228496,1.198051,-0.033276,-0.01831,-0.001747,0.030953,-0.226513,-0.973516,-0.006264,-0.002338,-0.0003,8.231934,-28.303802,-41.707214,,,,,,,
1532483313,0.031288,0.227795,1.198239,-0.034584,-0.024755,0.012042,0.030475,-0.22583,-0.97369,-0.006733,-0.000457,0.003551,8.179626,-28.358398,-41.752136,,,,,,,
1532483313,0.030695,0.227171,1.198455,-0.03452,-0.032181,0.008811,0.029901,-0.225222,-0.973848,-0.008326,-0.007719,0.008394,8.528015,-28.193634,-41.860474,,,,,,,
1532483313,0.029681,0.226308,1.198572,-0.051369,-0.057685,-0.000114,0.02892,-0.224381,-0.974072,-0.008504,-0.011611,0.004285,8.487488,-28.318146,-41.978333,,,,,,,
1532483313,0.028602,0.225107,1.198484,-0.066154,-0.043848,-0.007742,0.027877,-0.22321,-0.974371,-0.010879,-0.007808,0.008841,8.162109,-28.175873,-41.879211,,,,,,,
1532483313,0.028022,0.223628,1.198427,-0.081054,-0.025793,-0.008962,0.027321,-0.221768,-0.974716,-0.01104,-0.013186,0.011902,7.752747,-28.302948,-41.88092,,,,,,,
1532483313,0.027337,0.2217,1.198279,-0.106526,-0.043889,-0.012668,0.026665,-0.219888,-0.97516,-0.009804,-0.015631,0.008409,8.033875,-28.151489,-42.024231,,,,,,,
1532483313,0.026324,0.219614,1.197973,-0.10316,-0.062981,-0.021227,0.025689,-0.217853,-0.975643,-0.009224,-0.010815,0.010266,8.133606,-27.940033,-42.155823,,,,,,,
1532483313,0.024976,0.218108,1.197713,-0.054324,-0.068257,-0.012993,0.024381,-0.216383,-0.976004,-0.01013,-0.008166,0.011069,7.926819,-28.007721,-41.976318,,,,,,,
1532483313,0.024051,0.217744,1.197469,-0.002158,-0.036276,-0.014101,0.023481,-0.216028,-0.976105,-0.006696,-0.004523,0.014679,7.833313,-27.944397,-41.999451,,,,,,,
1532483313,0.02372,0.217822,1.197276,-0.003343,-0.011851,-0.008674,0.023158,-0.216103,-0.976096,-0.007243,-0.004691,0.015296,7.948242,-27.969635,-41.940002,,,,,,,
,,,,,,,,,,,,,,,,42.473793,-83.405002,245.281952,-1,-1,1532483313,
1532483313,0.023419,0.217562,1.197168,-0.022491,-0.024637,-0.009054,0.022865,-0.215849,-0.976159,-0.001762,-0.009111,0.022393,7.934875,-27.994781,-41.98175,,,,,,,
1532483313,0.022521,0.216863,1.196842,-0.046667,-0.063937,-0.024558,0.021992,-0.215167,-0.976329,0.002422,-0.010266,0.026516,7.803406,-27.95871,-41.969177,,,,,,,
1532483313,0.020785,0.215655,1.196175,-0.068654,-0.105346,-0.043231,0.020302,-0.213987,-0.976625,0.004662,-0.010424,0.021669,7.923401,-27.694916,-42.14093,,,,,,,
1532483313,0.018795,0.214148,1.195066,-0.082175,-0.11167,-0.060523,0.018364,-0.212515,-0.976985,0.006446,-0.006754,0.016154,7.963806,-27.634979,-42.284729,,,,,,,
1532483313,0.017275,0.212268,1.193756,-0.103431,-0.071278,-0.06493,0.016886,-0.210678,-0.97741,0.007955,-0.006195,0.010201,7.882874,-27.569244,-42.257385,,,,,,,
1532483313,0.016885,0.209818,1.192724,-0.136873,-0.010832,-0.043882,0.016514,-0.208282,-0.977929,0.009579,-0.004502,0.013726,7.945312,-27.52533,-42.315674,,,,,,,
1532483313,0.01681,0.206639,1.192021,-0.173208,-0.020496,-0.036012,0.016452,-0.205171,-0.978588,0.013486,-0.003813,0.007671,7.736084,-26.916595,-42.512512,,,,,,,
1532483313,0.016047,0.203231,1.191296,-0.165598,-0.064042,-0.042494,0.015716,-0.201834,-0.979293,0.012329,0.000266,0.005752,7.711609,-26.814056,-42.474121,,,,,,,
1532483313,0.014661,0.200394,1.190412,-0.131453,-0.08949,-0.045252,0.014368,-0.199055,-0.979883,0.012442,-0.00114,0.002496,7.678955,-27.042908,-42.703857,,,,,,,
1532483313,0.01301,0.19821,1.189814,-0.102114,-0.083188,-0.019181,0.012755,-0.196914,-0.980338,0.012865,-0.002686,-0.001535,7.753174,-27.05426,-42.760254,,,,,,,
1532483313,0.011755,0.196254,1.189854,-0.102698,-0.054631,0.011832,0.011529,-0.194997,-0.980736,0.007255,-0.001979,0.000633,7.483582,-26.917389,-42.825012,,,,,,,
1532483313,0.010834,0.194053,1.190422,-0.112644,-0.035599,0.03093,0.010631,-0.192838,-0.981173,-0.001597,-0.006305,0.000811,7.461609,-26.745422,-42.759338,,,,,,,
1532483313,0.010199,0.192018,1.1909,-0.097398,-0.033359,0.012027,0.010011,-0.19084,-0.98157,-0.005831,-0.008653,0.003771,7.222778,-26.624481,-42.92926,,,,,,,
1532483313,0.009196,0.190349,1.190867,-0.078773,-0.064032,-0.015505,0.00903,-0.189202,-0.981897,-0.008389,-0.013969,0.003961,7.241821,-26.737213,-42.92926,,,,,,,
1532483313,0.008134,0.188864,1.190417,-0.074317,-0.051211,-0.02708,0.007989,-0.187743,-0.982186,-0.008996,-0.011857,0.010521,7.235596,-26.654694,-42.973938,,,,,,,
1532483313,0.007334,0.187165,1.190051,-0.094722,-0.042783,-0.017791,0.007206,-0.186075,-0.982509,-0.012745,-0.010047,0.011669,7.158569,-26.249695,-43.156311,,,,,,,
1532483313,0.006615,0.185232,1.189616,-0.096622,-0.041662,-0.030595,0.006502,-0.184175,-0.982872,-0.011812,-0.010512,0.009773,7.221558,-26.277924,-43.072327,,,,,,,
1532483313,0.00579,0.183678,1.188851,-0.066499,-0.053231,-0.047193,0.005693,-0.182647,-0.983162,-0.012269,-0.010407,0.013542,7.287842,-26.494598,-43.167969,,,,,,,
1532483313,0.004818,0.182624,1.187627,-0.050084,-0.060532,-0.071449,0.004738,-0.181611,-0.983359,-0.009941,-0.011901,0.014548,7.209229,-26.25177,-43.302612,,,,,,,
1532483313,0.003704,0.181623,1.185962,-0.055066,-0.075337,-0.089707,0.003643,-0.180626,-0.983545,-0.008374,-0.012184,0.0104,7.409607,-26.07077,-43.257507,,,,,,,
1532483313,0.002438,0.180437,1.184176,-0.063637,-0.07643,-0.08666,0.002398,-0.179459,-0.983762,-0.008548,-0.009109,0.004926,7.303406,-26.270844,-43.379333,,,,,,,
1532483313,0.001493,0.179092,1.182529,-0.070187,-0.046708,-0.079165,0.00147,-0.178136,-0.984005,-0.008519,-0.006404,0.000942,7.27948,-26.111298,-43.363892,,,,,,,
1532483313,0.001245,0.177757,1.181055,-0.067118,-0.020148,-0.073657,0.001225,-0.176823,-0.984242,-0.009785,-0.004894,0.003621,7.155029,-25.853027,-43.382874,,,,,,,
1532483313,0.001075,0.176501,1.179416,-0.061517,-0.029638,-0.088519,0.001058,-0.175586,-0.984463,-0.00884,-0.007016,0.00578,7.321045,-25.670868,-43.30542,,,,,,,
1532483313,0.000682,0.175579,1.177411,-0.033491,-0.033758,-0.107244,0.000671,-0.174678,-0.984625,-0.005081,-0.011601,0.009787,7.280945,-25.6409,-43.360474,,,,,,,
1532483313,0.000647,0.175192,1.175245,-0.017565,-0.011414,-0.105804,0.000637,-0.174297,-0.984693,-0.000255,-0.009983,0.01518,7.507568,-25.944641,-43.383301,,,,,,,
1532483313,0.000885,0.174748,1.17337,-0.02748,-0.003009,-0.087824,0.000872,-0.17386,-0.98477,0.004621,-0.003692,0.018309,7.219421,-25.632568,-43.45813,,,,,,,
1532483313,0.000856,0.173719,1.171731,-0.070217,-0.018001,-0.079021,0.000843,-0.172846,-0.984948,0.012539,-0.004232,0.011499,7.318726,-25.392395,-43.514954,,,,,,,
1532483313,0.000905,0.171856,1.170286,-0.104469,-0.001089,-0.069918,0.000892,-0.171012,-0.985268,0.012292,-0.006112,0.015023,7.456787,-25.526489,-43.245605,,,,,,,
1532483313,0.001042,0.169978,1.169115,-0.084578,-0.01072,-0.050472,0.001027,-0.169161,-0.985588,0.015529,-0.00247,0.015449,7.514404,-25.605804,-43.622864,,,,,,,
1532483313,0.000595,0.168715,1.168408,-0.053039,-0.040547,-0.026675,0.000586,-0.167916,-0.985801,0.01925,-0.001991,0.010246,7.342834,-25.428436,-43.689758,,,,,,,
1532483313,-0.000173,0.167572,1.168099,-0.071477,-0.041731,-0.007819,-0.000171,-0.166788,-0.985993,0.02138,-0.002767,0.004334,7.535828,-25.291473,-43.723938,,,,,,,
1532483313,-0.000461,0.165436,1.168134,-0.126159,0.007,0.01069,-0.000455,-0.164682,-0.986346,0.015668,-0.001196,0.006152,7.490234,-25.05069,-43.654907,,,,,,,
1532483313,0.000189,0.162378,1.168525,-0.170002,0.034531,0.019688,0.000187,-0.161665,-0.986846,0.014996,0.001265,0.016173,7.417908,-24.992767,-43.809937,,,,,,,
1532483313,0.000385,0.158701,1.168804,-0.191107,0.001585,0.010656,0.00038,-0.158035,-0.987433,0.016298,-0.000931,0.015326,7.289368,-24.674255,-43.795654,,,,,,,
1532483313,0.000456,0.154766,1.168968,-0.204891,0.004769,0.00725,0.000451,-0.154149,-0.988047,0.0158,-0.003444,0.018718,7.363037,-24.862976,-43.720276,,,,,,,
1532483313,0.000426,0.150263,1.169287,-0.242385,-0.005986,0.020419,0.000422,-0.149698,-0.988732,0.011999,-0.001196,0.017235,7.354126,-24.840118,-43.928345,,,,,,,
1532483313,0.000352,0.145217,1.169937,-0.258664,0.016243,0.036234,0.000349,-0.144707,-0.989474,0.008471,-0.003684,0.031405,7.361084,-24.316742,-44.183838,,,,,,,
1532483313,0.00146,0.139934,1.170707,-0.27045,0.075753,0.037404,0.001446,-0.139478,-0.990224,0.00594,-0.004077,0.046117,7.423157,-23.998566,-44.200989,,,,,,,
1532483314,0.003429,0.1348,1.171476,-0.251272,0.114072,0.034718,0.003397,-0.134392,-0.990922,0.018301,-0.013588,0.060975,7.550781,-23.849915,-44.23114,,,,,,,
1532483314,0.004595,0.129976,1.172154,-0.245754,0.016295,0.028994,0.004556,-0.12961,-0.991554,0.035102,-0.023435,0.06382,7.630432,-23.539154,-44.436584,,,,,,,
1532483314,0.003063,0.125071,1.17239,-0.242851,-0.123869,-0.006801,0.003039,-0.124745,-0.992184,0.033307,-0.025341,0.06506,7.483887,-23.529449,-44.560913,,,,,,,
1532483314,0.000278,0.121198,1.171596,-0.159885,-0.149002,-0.059863,0.000276,-0.120902,-0.992664,0.030577,-0.022821,0.078892,7.364929,-23.559235,-44.724731,,,,,,,
1532483314,-0.001748,0.119175,1.170627,-0.071235,-0.054427,-0.020657,-0.001736,-0.118893,-0.992905,0.030056,-0.011402,0.071183,7.278381,-23.163605,-44.648926,,,,,,,
1532483314,0.003419,0.119068,1.173564,0.032583,0.549285,0.273719,0.003395,-0.118787,-0.992914,0.00164,0.024594,0.093347,7.509399,-23.25351,-44.812317,,,,,,,
1532483314,0.019973,0.120618,1.183078,0.074988,0.979655,0.557691,0.019827,-0.120326,-0.992536,-0.013678,0.04069,0.110273,8.186401,-23.390198,-44.542664,,,,,,,
1532483314,0.03269,0.120991,1.194072,-0.050202,0.476861,0.498793,0.032446,-0.120696,-0.992159,0.048762,-0.006135,0.09392,8.455444,-23.546082,-44.54541,,,,,,,
1532483314,0.0332,0.118042,1.200881,-0.221566,-0.139842,0.230922,0.032963,-0.117768,-0.992494,0.059368,-0.036193,0.084352,8.30127,-23.336884,-44.688782,,,,,,,
1532483314,0.027866,0.112787,1.203431,-0.276061,-0.229531,0.068786,0.027685,-0.112548,-0.99326,0.025751,-0.013215,0.066686,7.928772,-23.174988,-44.65332,,,,,,,
1532483314,0.029138,0.107052,1.204646,-0.337356,0.35084,0.072821,0.028967,-0.106848,-0.993853,0.060281,0.005804,0.04552,8.12085,-22.763,-44.775146,,,,,,,
1532483314,0.033753,0.098352,1.207983,-0.498508,0.202899,0.27812,0.033584,-0.098194,-0.9946,0.080506,0.03432,-0.074873,8.151855,-22.545837,-44.897461,,,,,,,
1532483314,0.039043,0.086314,1.221064,-0.732411,0.363594,0.841544,0.038888,-0.086207,-0.995518,0.003287,0.08108,0.035664,8.262146,-22.129486,-45.20105,,,,,,,
1532483314,0.039937,0.068844,1.244835,-1.031494,-0.071889,1.329555,0.039832,-0.06879,-0.996836,0.022699,0.091235,0.006311,8.003418,-21.690216,-45.619202,,,,,,,
1532483314,0.026303,0.046953,1.276745,-1.197807,-0.915829,1.679278,0.02627,-0.046935,-0.998552,0.067312,0.014602,0.013872,6.612183,-20.461517,-46.22998,,,,,,,
1532483314,0.001874,0.025503,1.311217,-0.99515,-1.151495,1.671855,0.001873,-0.025501,-0.999673,0.008412,-0.086194,-0.048041,4.930298,-19.828857,-46.818726,,,,,,,
1532483314,-0.013895,0.010052,1.341959,-0.637324,-0.597103,1.463327,-0.013894,-0.010052,-0.999853,0.013878,-0.064441,-0.02801,3.822266,-19.557098,-47.263367,,,,,,,
1532483314,-0.024451,0.001282,1.367892,-0.269251,-0.53913,1.242889,-0.024448,-0.001282,-0.9997,0.091816,0.014176,-0.063349,2.537781,-19.070251,-47.341187,,,,,,,
1532483314,-0.040926,0.000672,1.392405,0.18234,-1.06265,1.262618,-0.040914,-0.000672,-0.999162,0.13355,0.070297,-0.004042,1.414917,-19.125031,-47.197021,,,,,,,
1532483314,-0.069904,0.00875,1.421336,0.669765,-1.630926,1.541462,-0.069845,-0.00875,-0.997519,0.025731,0.027045,0.010016,-0.299866,-19.784058,-47.127136,,,,,,,
1532483314,-0.109224,0.025297,1.456022,1.165171,-2.21444,1.673418,-0.108972,-0.025294,-0.993723,0.019235,0.003779,0.045298,-2.88324,-20.555481,-46.344971,,,,,,,
1532483314,-0.170282,0.04842,1.487517,1.471282,-3.461885,1.176,-0.169262,-0.048401,-0.984382,0.069744,0.016998,-0.0794,-6.126282,-21.964966,-45.491211,,,,,,,
1532483314,-0.220362,0.077269,1.508475,1.582848,-0.349552,0.440667,-0.21793,-0.077193,-0.972907,-0.074138,-0.071382,-0.013834,-8.296265,-23.148651,-44.542236,,,,,,,
1532483314,-0.207934,0.092465,1.51599,0.637156,0.132315,0.07077,-0.205557,-0.092334,-0.974279,-0.339716,-0.081967,-0.612406,-8.304138,-24.033203,-44.161316,,,,,,,
1532483314,-0.216185,0.104038,1.516579,0.443469,-0.458385,-0.08234,-0.213345,-0.103851,-0.971442,0.014248,-0.016099,0.109381,-8.389343,-24.395874,-43.843262,,,,,,,
1532483314,-0.22754,0.102827,1.520387,-0.302559,-0.814749,0.386979,-0.22439,-0.102646,-0.969078,0.044748,-0.055954,0.008583,-9.139465,-24.411377,-43.895142,,,,,,,
1532483314,-0.256432,0.087848,1.533843,-0.672022,-1.552718,1.191749,-0.252653,-0.087735,-0.963571,0.171186,-0.165866,0.009011,-10.808655,-23.51944,-43.882751,,,,,,,
1532483314,-0.287971,0.063567,1.565323,-0.77695,-1.080027,2.145396,-0.283434,-0.063525,-0.956885,0.542238,-0.126829,0.075461,-12.697754,-22.769409,-43.738037,,,,,,,
1532483314,-0.280836,0.049105,1.604654,0.420537,0.758835,1.956118,-0.276825,-0.049086,-0.959665,-0.054229,-0.042482,-0.01087,-13.348022,-22.104523,-43.803772,,,,,,,
1532483314,-0.270518,0.057692,1.640596,0.972191,0.682487,1.422852,-0.266786,-0.05766,-0.962029,-0.082274,-0.083346,0.076348,-13.43158,-22.549103,-43.578064,,,,,,,
1532483314,-0.255137,0.065784,1.664299,0.519748,0.764347,0.822698,-0.251832,-0.065736,-0.965536,0.027619,0.049318,-0.031489,-13.384827,-22.898804,-43.44104,,,,,,,
1532483314,-0.245806,0.069715,1.679992,0.353862,0.459502,0.707688,-0.242747,-0.069658,-0.967585,0.059398,0.017992,-0.069387,-13.11322,-22.674042,-43.403198,,,,,,,
1532483314,-0.241266,0.073304,1.697083,0.431993,0.217497,0.874936,-0.23829,-0.073238,-0.968428,0.122949,-0.081364,-0.119386,-13.298279,-23.054718,-43.229187,,,,,,,
1532483314,-0.241997,0.079547,1.719637,0.653313,-0.049946,1.074234,-0.238884,-0.079463,-0.967791,0.13604,-0.101674,-0.132002,-13.834351,-23.224609,-43.033997,,,,,,,
1532483314,-0.243089,0.088255,1.742902,0.70585,0.157875,0.984572,-0.239765,-0.08814,-0.966821,0.156772,-0.033945,-0.050696,-14.222839,-23.607086,-42.740173,,,,,,,
1532483314,-0.235,0.095073,1.764731,0.496603,0.750783,0.985163,-0.231791,-0.094929,-0.968122,0.050105,-0.044368,0.059583,-14.20813,-23.721741,-42.717346,,,,,,,
1532483314,-0.213576,0.09605,1.784093,0.104125,1.426887,0.86815,-0.210979,-0.095902,-0.972775,0.03419,-0.078765,0.155346,-13.616882,-23.660828,-42.851562,,,,,,,
1532483314,-0.176042,0.09049,1.796152,-0.273411,2.310445,0.502196,-0.174418,-0.090366,-0.980516,0.00323,-0.094921,0.247698,-12.066589,-23.583313,-43.494934,,,,,,,
1532483314,-0.116914,0.08277,1.801227,-0.359563,3.36955,0.206887,-0.116248,-0.082676,-0.989773,0.017219,0.011646,0.230069,-9.642212,-23.203918,-44.32019,,,,,,,
,,,,,,,,,,,,,,,,42.473817,-83.404993,245.50737,-1,-1,1532483314,
1532483314,-0.06237,0.064216,1.805218,-1.153294,2.205023,0.469042,-0.062201,-0.064172,-0.995998,-0.018106,-0.08985,-0.375324,-7.093994,-22.371277,-45.032227,,,,,,,
1532483314,-0.015151,0.046348,1.815759,-0.757387,2.548521,0.580589,-0.015134,-0.046332,-0.998811,0.065976,-0.099359,0.181612,-5.508179,-21.56546,-45.660461,,,,,,,
1532483314,-0.007199,0.029238,1.828782,-0.93192,-0.19775,0.773671,-0.007196,-0.029234,-0.999547,0.496331,-0.026903,-0.769191,-5.502563,-20.780182,-46.131409,,,,,,,
1532483314,-0.011548,0.012333,1.83958,-0.773537,-0.49309,0.330776,-0.011547,-0.012333,-0.999857,0.228665,0.062656,0.140192,-5.85437,-19.805908,-46.273438,,,,,,,
1532483314,-0.028486,-0.002106,1.84215,-0.703156,-0.859496,0.047922,-0.028482,0.002106,-0.999592,0.055719,0.015106,-0.100857,-6.632935,-19.398956,-46.47345,,,,,,,
1532483314,-0.043474,-0.014235,1.83908,-0.536059,-0.700749,-0.192363,-0.043456,0.014234,-0.998954,0.124739,0.05527,0.040519,-7.155151,-18.493866,-46.61731,,,,,,,
1532483314,-0.055039,-0.019704,1.839694,-0.076286,-0.471551,0.280633,-0.055001,0.019703,-0.998292,0.040596,-0.065693,0.046296,-7.155151,-18.493866,-46.61731,,,,,,,
1532483314,-0.05819,-0.014469,1.855952,0.53686,0.06887,1.089946,-0.058151,0.014468,-0.998203,-0.046692,-0.130282,0.139667,-7.695435,-18.092316,-46.502991,,,,,,,
1532483314,-0.048174,0.000686,1.882407,0.981707,0.6873,1.308034,-0.048155,-0.000686,-0.99884,0.073897,-0.076218,0.189269,-8.298645,-18.314056,-46.336853,,,,,,,
1532483314,-0.03307,0.020332,1.906534,1.002714,0.776639,1.083091,-0.033057,-0.020331,-0.999247,0.203193,0.067908,0.119852,-8.508179,-18.922211,-46.262085,,,,,,,
1532483314,-0.018994,0.037198,1.926914,0.820498,0.700308,0.976413,-0.01898,-0.037189,-0.999128,0.198332,0.076999,0.120481,-8.073425,-19.881958,-46.098267,,,,,,,
1532483314,-0.008098,0.055363,1.94391,1.018919,0.578479,0.725651,-0.008085,-0.055335,-0.998435,0.117994,0.006827,0.192405,-7.801208,-20.572388,-45.885559,,,,,,,
1532483315,0.004539,0.078103,1.95502,1.19461,0.715991,0.482207,0.004525,-0.078024,-0.996941,0.081,0.010443,0.282616,-7.327637,-21.446991,-45.54071,,,,,,,
1532483315,0.018942,0.101115,1.963407,1.092419,0.803318,0.417071,0.018844,-0.100943,-0.994714,0.115617,0.072684,0.31173,-7.19043,-22.084686,-45.10614,,,,,,,
1532483315,0.037579,0.120144,1.971972,0.85324,1.149157,0.495787,0.037299,-0.119855,-0.99209,0.128091,0.089383,0.342798,-6.904358,-23.131714,-44.654236,,,,,,,
1532483315,0.065651,0.134963,1.983315,0.628981,1.666741,0.683158,0.065007,-0.134554,-0.988771,0.091929,0.061739,0.385363,-5.923767,-24.210632,-44.513855,,,,,,,
1532483315,0.103232,0.145591,1.999834,0.341146,2.199698,0.970714,0.101959,-0.145078,-0.984153,0.05983,0.074353,0.312003,-4.856262,-24.648071,-44.497925,,,,,,,
1532483315,0.14795,0.150526,2.022486,-0.025913,2.488108,1.235502,0.145744,-0.149958,-0.977891,0.096474,0.112834,0.211045,-3.713135,-24.865265,-44.305786,,,,,,,
1532483315,0.194922,0.151223,2.049953,-0.289843,2.630451,1.397971,0.191479,-0.150647,-0.969866,0.057452,0.169309,0.199603,-2.012085,-25.032745,-44.320251,,,,,,,
1532483315,0.246016,0.150418,2.078987,-0.375984,2.914274,1.377745,0.240792,-0.149852,-0.958938,-0.017251,0.162654,0.276672,-0.434448,-24.851715,-44.515747,,,,,,,
1532483315,0.304893,0.148956,2.106318,-0.484368,3.258204,1.229676,0.296866,-0.148406,-0.943316,-0.00582,0.191237,0.299227,1.424377,-24.802979,-44.582275,,,,,,,
1532483315,0.363165,0.146115,2.131159,-0.559834,2.945252,1.060748,0.351449,-0.145596,-0.924816,0.04737,0.27264,0.193721,3.834229,-24.327271,-44.65509,,,,,,,
1532483315,0.413411,0.143449,2.15501,-0.574168,2.569993,1.047977,0.397608,-0.142958,-0.906349,0.022634,0.269423,0.136543,5.95929,-23.947723,-44.615479,,,,,,,
1532483315,0.459932,0.140493,2.179648,-0.742219,2.550635,1.038717,0.439513,-0.140031,-0.887253,0.002153,0.258913,0.149414,7.992188,-23.714478,-44.469055,,,,,,,
1532483315,0.509325,0.132252,2.206283,-1.140947,2.725897,0.939314,0.48333,-0.131867,-0.865448,0.044868,0.299058,0.154496,9.50415,-23.539948,-44.276978,,,,,,,
1532483315,0.561069,0.120214,2.235492,-1.267638,2.813683,0.993034,0.528251,-0.119925,-0.840575,0.042977,0.29566,0.108565,11.564087,-22.74826,-44.057312,,,,,,,
1532483315,0.614081,0.11477,2.266854,-0.980743,2.883049,1.258996,0.572416,-0.114518,-0.811925,0.048022,0.281006,0.09609,13.591858,-21.777008,-43.994873,,,,,,,
1532483315,0.668936,0.116851,2.299238,-0.88186,2.994269,1.379381,0.615922,-0.116585,-0.779131,0.033386,0.285607,0.085451,15.731689,-21.235352,-43.64386,,,,,,,
1532483315,0.727943,0.116932,2.332794,-1.226122,3.270962,1.20685,0.660791,-0.116665,-0.741445,0.086295,0.344632,0.004277,17.780518,-20.874176,-43.095642,,,,,,,
1532483315,0.789521,0.109744,2.368497,-1.630297,3.254543,0.946672,0.705743,-0.109523,-0.699947,0.151969,0.35284,-0.118656,19.836731,-20.389618,-42.230835,,,,,,,
1532483315,0.844692,0.097676,2.40473,-1.752318,2.729188,0.713084,0.744201,-0.09752,-0.660795,0.176667,0.343187,-0.224993,22.138916,-19.565918,-41.473816,,,,,,,
1532483315,0.888525,0.085257,2.437278,-1.567001,2.187209,0.501522,0.773321,-0.085154,-0.628265,0.132074,0.321131,-0.183716,24.384583,-18.783203,-40.933655,,,,,,,
1532483315,0.930481,0.072844,2.465429,-1.496396,2.307346,0.299913,0.799778,-0.07278,-0.595862,0.168804,0.405513,-0.079615,26.066528,-17.852417,-40.187134,,,,,,,
1532483315,0.978214,0.056502,2.493727,-1.754369,2.603605,0.065016,0.828174,-0.056472,-0.557612,0.205884,0.409804,-0.061407,27.963379,-17.023743,-39.547974,,,,,,,
1532483315,1.030719,0.034263,2.526972,-2.169869,2.757923,-0.107176,0.857162,-0.034256,-0.513898,0.247056,0.410202,-0.11719,29.869568,-15.574951,-38.718079,,,,,,,
1532483315,1.085193,0.007657,2.566697,-2.521307,2.787686,-0.223567,0.884363,-0.007657,-0.466726,0.271429,0.390775,-0.16598,31.829895,-14.083862,-37.734985,,,,,,,
1532483315,1.141725,-0.020907,2.612245,-2.792323,2.853602,-0.313958,0.909149,0.020905,-0.415933,0.263702,0.366546,-0.189795,34.000977,-12.137634,-36.473083,,,,,,,
1532483315,1.201616,-0.051328,2.662692,-2.997744,2.957287,-0.501039,0.93139,0.051305,-0.360374,0.244178,0.367961,-0.215127,36.11261,-10.277008,-35.082947,,,,,,,
1532483315,1.26526,-0.083625,2.715567,-3.052042,3.045518,-0.742138,0.950347,0.083527,-0.299751,0.214936,0.356567,-0.258232,38.387268,-7.887634,-33.277161,,,,,,,
1532483315,1.331219,-0.116145,2.768524,-2.939331,3.043303,-0.910658,0.964887,0.115884,-0.235692,0.170199,0.318137,-0.298609,40.32251,-5.333679,-31.337219,,,,,,,
1532483315,1.39635,-0.145392,2.818767,-2.629389,2.841769,-0.905491,0.974425,0.144881,-0.17173,0.161256,0.288393,-0.33242,42.490601,-2.819153,-29.340881,,,,,,,
1532483315,1.453824,-0.168505,2.863208,-2.176641,2.319846,-0.772865,0.979093,0.167709,-0.115052,0.169864,0.279603,-0.359512,44.063721,-0.624542,-26.716736,,,,,,,
1532483315,1.497353,-0.184866,2.899065,-1.655638,1.584032,-0.576299,0.980304,0.183815,-0.072126,0.200437,0.285851,-0.355334,45.191833,1.261292,-24.712402,,,,,,,
1532483315,1.524842,-0.196099,2.926466,-1.249651,0.855753,-0.438028,0.979791,0.194845,-0.045058,0.154746,0.253199,-0.315828,46.284485,2.624359,-23.21637,,,,,,,
1532483315,1.539498,-0.204984,2.948545,-1.054015,0.352993,-0.396864,0.978577,0.203552,-0.030638,0.111648,0.216233,-0.270052,46.616394,3.990662,-22.145142,,,,,,,
1532483315,1.548036,-0.214062,2.969393,-1.053881,0.152322,-0.45324,0.976915,0.212431,-0.022239,0.083266,0.198488,-0.218239,47.055969,4.89032,-21.496521,,,,,,,
1532483315,1.555749,-0.224175,2.991629,-1.140178,0.158834,-0.510002,0.97486,0.222302,-0.01467,0.05314,0.161212,-0.191293,46.853455,5.628632,-21.229187,,,,,,,
1532483315,1.565256,-0.235051,3.016096,-1.255652,0.219421,-0.545677,0.97248,0.232893,-0.005388,0.033822,0.137484,-0.183318,46.94397,6.431305,-20.937683,,,,,,,
1532483315,1.57654,-0.245957,3.043443,-1.383433,0.22666,-0.54562,0.969881,0.243485,0.005571,0.039701,0.136871,-0.18741,46.836182,7.690582,-20.585327,,,,,,,
1532483315,1.587701,-0.256328,3.073028,-1.475112,0.170126,-0.536769,0.967181,0.25353,0.016351,0.026639,0.109339,-0.197031,46.803528,8.274109,-20.068298,,,,,,,
1532483315,1.59929,-0.266484,3.105,-1.590862,0.160456,-0.553636,0.964303,0.263341,0.027484,0.011283,0.087535,-0.204715,47.015076,9.48587,-19.774231,,,,,,,
1532483315,1.61048,-0.276019,3.139622,-1.714728,0.050636,-0.528547,0.961382,0.272528,0.038171,0.015226,0.06399,-0.238946,46.901245,10.709229,-19.330811,,,,,,,
1532483315,1.621084,-0.284692,-3.105695,-1.871369,-0.033653,-0.517714,0.958527,0.280862,0.048243,0.018234,0.048042,-0.270594,46.944641,11.749634,-18.647034,,,,,,,
1532483315,1.630307,-0.293149,-3.064297,-2.036754,-0.187919,-0.549968,0.955636,0.288968,0.056938,0.020316,0.036669,-0.314079,46.825134,13.066528,-18.254883,,,,,,,
1532483315,1.638314,-0.302184,-3.019263,-2.185625,-0.313306,-0.61375,0.952506,0.297606,0.064409,0.032236,0.033236,-0.349779,46.608337,14.420624,-18.001038,,,,,,,
1532483315,1.64439,-0.311738,-2.971848,-2.265742,-0.464224,-0.650969,0.949217,0.306713,0.069983,0.029802,0.008884,-0.380865,46.306458,15.716675,-17.491455,,,,,,,
1532483315,1.650177,-0.321263,-2.92275,-2.327436,-0.470686,-0.65415,0.945841,0.315766,0.07524,0.02123,-0.011353,-0.395568,46.250977,16.946777,-17.122009,,,,,,,
1532483315,1.657834,-0.330413,-2.872837,-2.332739,-0.393061,-0.659171,0.94232,0.324434,0.082225,0.022249,-0.020921,-0.378765,45.963074,18.339966,-16.90802,,,,,,,
1532483315,1.666021,-0.3392,-2.823782,-2.245661,-0.415316,-0.645068,0.938741,0.332733,0.089662,0.038951,-0.016983,-0.389177,45.318604,19.775848,-16.338928,,,,,,,
1532483315,1.672299,-0.347051,-2.776903,-2.134728,-0.519582,-0.591586,0.935531,0.340126,0.095286,0.03035,-0.034127,-0.39648,44.828918,21.04718,-15.719849,,,,,,,
1532483315,1.675952,-0.353799,-2.731591,-2.086508,-0.655823,-0.542493,0.932873,0.346464,0.098461,0.021945,-0.059858,-0.393489,44.298279,22.251526,-15.243103,,,,,,,
1532483315,1.67677,-0.359549,-2.685945,-2.141476,-0.837928,-0.4964,0.930796,0.351852,0.099011,0.025777,-0.085479,-0.36514,43.894775,23.274536,-14.787781,,,,,,,
1532483316,1.675605,-0.363684,-2.637383,-2.344174,-0.955604,-0.409828,0.929456,0.35572,0.097773,0.043673,-0.083244,-0.319957,43.608887,24.489838,-14.361938,,,,,,,
1532483316,1.675631,-0.364469,-2.582638,-2.696402,-0.996292,-0.242282,0.929175,0.356453,0.097768,0.089563,-0.037254,-0.273824,42.980408,25.360291,-14.127197,,,,,,,
1532483316,1.677146,-0.361182,-2.520039,-3.093925,-1.077327,-0.100178,0.930186,0.35338,0.0993,0.152761,0.018202,-0.247569,42.445984,26.401917,-13.399658,,,,,,,
1532483316,1.678765,-0.355019,-2.450247,-3.420274,-1.19417,-0.00606,0.932172,0.347608,0.101038,0.188113,0.046816,-0.226679,42.363464,27.220673,-12.764954,,,,,,,
1532483316,1.679024,-0.345729,-2.375475,-3.629264,-1.337634,0.135649,0.935316,0.338882,0.101624,0.132464,0.016556,-0.234589,42.087646,28.204834,-11.890625,,,,,,,
1532483316,1.675325,-0.334064,-2.299598,-3.626319,-1.520881,0.217831,0.939552,0.327886,0.09857,0.047417,-0.029729,-0.239912,42.063843,28.666168,-10.865417,,,,,,,
1532483316,1.666012,-0.325393,-2.225727,-3.475268,-1.791517,-0.055757,0.943225,0.319681,0.090083,0.026318,-0.046793,-0.25651,42.007507,29.024109,-9.966553,,,,,,,
1532483316,1.648263,-0.325813,-2.157244,-3.106201,-2.091099,-0.431307,0.944541,0.320079,0.073317,-0.019584,-0.099391,-0.202269,41.803101,29.841492,-9.570557,,,,,,,
1532483316,1.626754,-0.33391,-2.097054,-2.667249,-1.986067,-0.687607,0.943282,0.327739,0.052839,-0.073042,-0.118999,-0.126829,41.080872,30.633484,-9.070679,,,,,,,
1532483316,1.609516,-0.346532,-2.047099,-2.117161,-1.504363,-0.748513,0.939844,0.339638,0.036409,-0.079065,-0.188271,-0.057619,40.386902,31.715027,-9.103027,,,,,,,
1532483316,1.600274,-0.358253,-2.010979,-1.425986,-0.842911,-0.552763,0.936096,0.350639,0.027602,-0.026154,-0.245369,-0.019057,39.641113,32.574493,-8.890259,,,,,,,
1532483316,1.59917,-0.365355,-1.989456,-0.770813,-0.229595,-0.306739,0.933613,0.357281,0.026497,0.044475,-0.226543,-0.015877,39.282104,33.163788,-8.705994,,,,,,,
1532483316,1.602691,-0.370643,-1.979827,-0.279521,0.088975,-0.287446,0.931613,0.362214,0.029723,0.095182,-0.220354,-0.02275,38.945862,33.447601,-8.083557,,,,,,,
1532483316,1.606776,-0.376899,-1.977923,0.002136,0.198035,-0.323776,0.929201,0.368039,0.033446,0.106688,-0.263043,-0.057479,38.818665,33.907074,-8.027832,,,,,,,
,,,,,,,,,,,,,,,,42.473859,-83.404921,257.56112,0.727234,-1,1532483316,
1532483316,1.609095,-0.382259,-1.978665,0.024787,0.05509,-0.214446,0.927136,0.373017,0.035525,0.124088,-0.327027,-0.108691,38.586243,34.150513,-7.898438,,,,,,,
1532483316,1.607121,-0.383305,-1.976518,-0.201157,-0.280353,0.0506,0.926813,0.373988,0.033681,0.130728,-0.354014,-0.139928,38.437378,34.499359,-7.960815,,,,,,,
1532483316,1.599666,-0.379109,-1.968283,-0.51895,-0.649759,0.273496,0.928599,0.370093,0.026816,0.103414,-0.34043,-0.152274,38.478943,34.282532,-7.930481,,,,,,,
1532483316,1.587776,-0.370378,-1.954919,-0.678541,-0.95736,0.518481,0.932048,0.361967,0.015828,0.117512,-0.31468,-0.141606,38.520935,34.249847,-8.027649,,,,,,,
1532483316,1.571753,-0.35795,-1.941785,-0.564883,-1.060963,0.657196,0.936609,0.350355,0.000896,0.121115,-0.253736,-0.102016,38.585938,34.170959,-8.381409,,,,,,,
1532483316,1.554236,-0.344299,-1.934472,-0.18568,-0.960644,0.703357,0.941176,0.337537,-0.015588,0.131731,-0.18028,-0.072135,39.043457,33.537933,-8.661926,,,,,,,
1532483316,1.535803,-0.329983,-1.937236,0.354834,-0.840792,0.71927,0.945461,0.324027,-0.033098,0.170414,-0.100516,-0.059904,39.548828,32.875397,-9.403992,,,,,,,
1532483316,1.516188,-0.314811,-1.952516,1.0071,-0.68462,0.736144,0.94943,0.309637,-0.051898,0.166766,-0.053213,-0.046948,39.698425,32.286774,-10.382385,,,,,,,
1532483316,1.495942,-0.297636,-1.981454,1.687266,-0.529693,0.800324,0.953348,0.293261,-0.071496,0.139975,-0.040576,-0.022162,40.071777,31.70459,-11.36377,,,,,,,
1532483316,1.474895,-0.277078,-2.022522,2.253903,-0.430412,0.903879,0.957432,0.273546,-0.092102,0.127559,-0.035402,0.008026,40.318054,30.716858,-12.67218,,,,,,,
1532483316,1.455981,-0.252063,-2.071622,2.610768,-0.23072,1.061975,0.962017,0.249402,-0.110943,0.084553,-0.016736,0.086879,40.853882,29.613434,-14.39856,,,,,,,
1532483316,1.442404,-0.222885,-2.123127,2.670734,-0.001678,1.20893,0.96723,0.221044,-0.124872,0.050699,0.043803,0.141046,41.343323,27.933136,-15.828857,,,,,,,
1532483316,1.434415,-0.190912,-2.172267,2.556262,0.179564,1.288877,0.972709,0.189754,-0.133488,0.005807,0.074406,0.155049,41.768005,26.18335,-17.312256,,,,,,,
1532483316,1.434103,-0.159025,-2.219508,2.548444,0.575324,1.230043,0.978166,0.158355,-0.134547,-0.000688,0.111756,0.20016,42.654419,24.313599,-18.616577,,,,,,,
1532483316,1.445477,-0.128943,-2.271319,2.924797,1.177154,1.113633,0.983915,0.128586,-0.123953,-0.039228,0.14798,0.32926,43.438965,22.525543,-19.269958,,,,,,,
1532483316,1.471316,-0.099732,-2.335275,3.605302,1.96597,1.1267,0.990105,0.099567,-0.098823,-0.049706,0.179333,0.378654,44.245728,20.214783,-19.517273,,,,,,,
1532483316,1.512043,-0.069415,-2.415775,4.461973,2.629149,1.237876,0.995864,0.069359,-0.058578,-0.054122,0.149284,0.324569,45.520996,17.640228,-19.404297,,,,,,,
1532483316,1.566831,-0.042475,-2.513086,5.152116,3.249466,1.13845,0.999084,0.042462,-0.003962,-0.051437,0.137622,0.255579,46.756836,15.128082,-18.572083,,,,,,,
1532483316,1.633162,-0.02597,-2.621076,5.502214,3.609451,0.895808,0.997713,0.025967,0.062303,-0.026918,0.159885,0.184614,47.895935,12.14502,-16.99054,,,,,,,
1532483316,1.702662,-0.021133,-2.731183,5.389617,3.612309,0.703364,0.99109,0.021131,0.131453,-0.009568,0.166323,0.072877,49.210693,9.568329,-14.952026,,,,,,,
1532483316,1.770274,-0.026341,-2.831582,4.729176,3.413452,0.492345,0.979823,0.026338,0.198087,-0.026072,0.148253,-0.012922,50.347717,7.567383,-12.563782,,,,,,,
1532483316,1.82902,-0.037009,-2.91235,3.626952,2.793595,0.356038,0.966176,0.037001,0.255186,-0.009312,0.175722,-0.100477,51.171326,5.92688,-9.983154,,,,,,,
1532483316,1.869167,-0.045608,-2.966818,2.158025,1.732516,0.32433,0.954815,0.045592,0.293656,-0.006252,0.208009,-0.188919,51.609985,4.86557,-7.610107,,,,,,,
1532483316,1.888256,-0.047356,-2.989014,0.435757,0.589738,0.174096,0.948959,0.047338,0.311801,-0.021896,0.244273,-0.212192,52.033813,4.266357,-5.999451,,,,,,,
1532483316,1.889086,-0.043904,-2.978849,-1.084537,-0.257687,-0.090578,0.948849,0.04389,0.312638,-0.072537,0.296671,-0.118577,51.883362,4.132843,-5.465027,,,,,,,
1532483316,1.880555,-0.036879,-2.944708,-2.05149,-0.577437,-0.24444,0.951752,0.03687,0.304619,-0.127304,0.329783,0.034218,52.132324,4.513519,-5.562134,,,,,,,
1532483316,1.869427,-0.029041,-2.899538,-2.358345,-0.633776,-0.348815,0.95533,0.029037,0.294085,-0.167045,0.367173,0.14433,52.030334,4.881226,-5.856934,,,,,,,
1532483316,1.858471,-0.024927,-2.854656,-2.064252,-0.597326,-0.539702,0.958601,0.024925,0.283633,-0.165998,0.383797,0.176969,52.022705,5.271332,-6.328247,,,,,,,
1532483316,1.849854,-0.029141,-2.819042,-1.410831,-0.349343,-0.827947,0.9609,0.029137,0.275331,-0.186135,0.374031,0.179839,51.715881,6.229584,-6.653687,,,,,,,
1532483316,1.850208,-0.043905,-2.793766,-0.803521,0.158517,-1.229581,0.960284,0.043891,0.275522,-0.22475,0.345132,0.174414,51.38501,6.942352,-6.848816,,,,,,,
1532483316,1.85919,-0.068596,-2.777037,-0.297316,0.571027,-1.51091,0.95644,0.068542,0.283742,-0.213765,0.267411,0.121059,51.380798,8.294098,-6.519043,,,,,,,
1532483316,1.871265,-0.099593,-2.763039,-0.272277,0.50561,-1.833462,0.950458,0.099428,0.294499,-0.172168,0.253767,0.013103,51.012085,9.842407,-6.046143,,,,,,,
1532483316,1.878572,-0.134646,-2.740923,-0.710027,0.021366,-2.09761,0.944377,0.134239,0.300195,-0.152232,0.253105,-0.096063,50.981567,11.54483,-5.58197,,,,,,,
1532483316,1.876855,-0.170011,-2.707098,-1.291051,-0.565627,-2.264547,0.939775,0.169193,0.296957,-0.114183,0.194683,-0.160513,50.228027,13.886963,-5.28064,,,,,,,
1532483316,1.867501,-0.205229,-2.661712,-1.793716,-1.084553,-2.410682,0.93623,0.203791,0.286233,-0.072598,0.136007,-0.160256,49.615601,16.365356,-5.258972,,,,,,,
1532483316,1.853065,-0.240946,-2.607731,-2.157963,-1.440838,-2.5058,0.932675,0.238621,0.270487,-0.011792,0.080898,-0.150675,48.777405,18.464294,-5.663879,,,,,,,
1532483317,1.836895,-0.276277,-2.547745,-2.424214,-1.68905,-2.490145,0.92821,0.272776,0.252995,0.037229,0.013937,-0.09261,47.768433,21.221527,-6.163513,,,,,,,
1532483317,1.818582,-0.310793,-2.48335,-2.638864,-1.936265,-2.442755,0.923006,0.305814,0.233506,0.089232,-0.030713,-0.083634,46.408203,23.479462,-6.555664,,,,,,,
1532483317,1.800706,-0.34416,-2.416242,-2.732073,-1.997457,-2.348768,0.916582,0.337406,0.214525,0.120252,-0.079472,-0.050462,44.927673,26.24057,-6.794556,,,,,,,
1532483317,1.786153,-0.376334,-2.349964,-2.645449,-1.816213,-2.201614,0.908528,0.367514,0.198739,0.1394,-0.132437,0.000403,43.636108,28.445496,-6.882935,,,,,,,
1532483317,1.778387,-0.405507,-2.288424,-2.3837,-1.409958,-1.916272,0.899167,0.394485,0.189387,0.167972,-0.182113,0.045339,41.95343,30.619629,-6.721863,,,,,,,
1532483317,1.776691,-0.4291,-2.236007,-1.939332,-1.012619,-1.483148,0.890127,0.416053,0.185907,0.240748,-0.194861,0.063025,40.560791,32.561859,-6.436035,,,,,,,
1532483317,1.7771,-0.445534,-2.196739,-1.368173,-0.707851,-0.990896,0.883238,0.43094,0.184845,0.318467,-0.156068,0.066986,39.444153,34.01828,-5.80835,,,,,,,
1532483317,1.777053,-0.455601,-2.171332,-0.831397,-0.484546,-0.595454,0.878956,0.440002,0.183906,0.3782,-0.088317,0.052254,38.678955,34.976776,-5.242432,,,,,,,
1532483317,1.775433,-0.461745,-2.157551,-0.404784,-0.324507,-0.346962,0.876589,0.445511,0.181929,0.392972,-0.041672,0.041337,38.21106,35.474487,-5.107727,,,,,,,
1532483317,1.7722,-0.465004,-2.152614,-0.070079,-0.267579,-0.133514,0.875746,0.448427,0.178802,0.30649,-0.077028,0.031433,38.065674,35.927979,-4.946533,,,,,,,
1532483317,1.765651,-0.466012,-2.153655,0.094499,-0.333929,0.013683,0.876454,0.449327,0.172976,0.199291,-0.129838,0.001996,37.893127,36.263367,-5.08313,,,,,,,
1532483317,1.758012,-0.464863,-2.155531,0.024872,-0.365268,0.097561,0.878256,0.448301,0.166372,0.073099,-0.201993,-0.016378,37.841797,36.306122,-5.49231,,,,,,,
1532483317,1.750386,-0.461982,-2.153565,-0.222989,-0.478598,0.149335,0.880767,0.445723,0.159899,-0.00447,-0.226668,-0.035693,37.914551,35.964813,-5.644348,,,,,,,
1532483317,1.742833,-0.456326,-2.145668,-0.508139,-0.605035,0.262187,0.884419,0.440653,0.153672,-0.045873,-0.232492,-0.039246,37.912842,35.83783,-5.818909,,,,,,,
1532483317,1.734681,-0.447879,-2.132882,-0.714099,-0.748258,0.3539,0.889284,0.433055,0.147059,-0.05327,-0.218791,-0.026759,37.973633,35.996399,-5.715698,,,,,,,
,,,,,,,,,,,,,,,,42.473881,-83.404943,222.913514,0.727234,-1,1532483317,
1532483317,1.724928,-0.437866,-2.117586,-0.78611,-0.865518,0.396844,0.894917,0.424007,0.139038,-0.033527,-0.180996,-0.016555,38.047791,36.132172,-5.920288,,,,,,,
1532483317,1.713986,-0.427435,-2.102084,-0.779063,-0.84116,0.418379,0.900713,0.414538,0.129862,-0.028948,-0.136096,0.004766,38.322083,35.707062,-5.941895,,,,,,,
1532483317,1.705137,-0.417274,-2.086588,-0.774472,-0.733661,0.394505,0.905955,0.40527,0.122444,-0.014536,-0.083737,0.010018,38.566772,34.960938,-6.212708,,,,,,,
1532483317,1.697004,-0.408159,-2.071089,-0.770306,-0.748285,0.341259,0.910547,0.39692,0.115532,0.052664,-0.012429,-0.024101,38.762573,35.061676,-6.08667,,,,,,,
1532483317,1.686365,-0.399202,-2.056637,-0.674299,-0.864282,0.396566,0.91522,0.388683,0.106244,0.118411,0.008549,-0.051251,38.755432,34.755737,-6.149353,,,,,,,
1532483317,1.674609,-0.389137,-2.045309,-0.539197,-0.733578,0.455888,0.92025,0.37939,0.095879,0.130363,-0.011577,-0.049721,38.931458,34.317963,-6.350769,,,,,,,
1532483317,1.666668,-0.379535,-2.03596,-0.45906,-0.499427,0.428573,0.924566,0.370489,0.088912,0.157587,0.011683,-0.033904,39.574097,34.399109,-6.540955,,,,,,,
1532483317,1.66182,-0.36963,-2.027705,-0.433642,-0.340191,0.487292,0.928596,0.361271,0.084759,0.175729,0.023098,-0.053692,39.603333,33.922943,-6.723389,,,,,,,
1532483317,1.6593,-0.357589,-2.019559,-0.44485,-0.238824,0.631366,0.933072,0.350016,0.082797,0.162371,0.004598,-0.065127,39.934692,33.425446,-6.528809,,,,,,,
1532483317,1.657693,-0.341747,-2.011699,-0.445456,-0.199412,0.840256,0.938611,0.335133,0.081768,0.118746,-0.019185,-0.070202,40.091187,33.055786,-6.263977,,,,,,,
1532483317,1.657615,-0.321539,-2.003457,-0.504799,-0.11867,1.056903,0.945172,0.316027,0.082265,0.064487,-0.015902,-0.066183,40.663269,32.659363,-6.346069,,,,,,,
1532483317,1.656798,-0.297413,-1.994526,-0.55675,-0.223742,1.226952,0.95256,0.293048,0.082125,0.007401,0.001294,-0.072237,41.299194,31.916351,-6.253479,,,,,,,
1532483317,1.655392,-0.270926,-1.983982,-0.664681,-0.234927,1.308169,0.960073,0.267624,0.081413,-0.045202,0.046707,-0.03672,42.323364,31.26825,-6.152405,,,,,,,
1532483317,1.653069,-0.243413,-1.971666,-0.75671,-0.286238,1.336207,0.967234,0.241016,0.079757,-0.07519,0.094876,-0.002303,42.850159,29.891174,-5.953308,,,,,,,
1532483317,1.651126,-0.215566,-1.957232,-0.860951,-0.247029,1.328295,0.973701,0.2139,0.078386,-0.098426,0.160749,0.019697,43.642944,28.693512,-5.796509,,,,,,,
1532483317,1.650147,-0.188265,-1.941185,-0.92094,-0.186322,1.286082,0.979235,0.187155,0.077867,-0.104097,0.223429,0.047194,44.288513,27.954224,-5.407959,,,,,,,
1532483317,1.650671,-0.162003,-1.924262,-0.952841,-0.093567,1.220004,0.983755,0.161295,0.078744,-0.111364,0.282186,0.060981,45.037476,26.78479,-5.044678,,,,,,,
1532483317,1.651984,-0.137712,-1.907046,-0.96124,-0.039818,1.092358,0.987265,0.137277,0.080331,-0.10868,0.32981,0.059577,45.771484,25.818115,-4.665222,,,,,,,
1532483317,1.653946,-0.116814,-1.889098,-1.000252,-0.019799,0.892696,0.989749,0.116548,0.082488,-0.120273,0.356078,0.045045,46.465942,24.967255,-4.229614,,,,,,,
1532483317,1.654012,-0.10044,-1.86936,-1.103038,-0.160149,0.635805,0.991512,0.100271,0.0827,-0.126278,0.355021,0.00696,46.636108,24.024658,-3.630676,,,,,,,
1532483317,1.651021,-0.089247,-1.845315,-1.354565,-0.357005,0.363398,0.992812,0.089128,0.07982,-0.122878,0.30023,-0.033708,46.848572,23.619568,-3.379211,,,,,,,
1532483317,1.642996,-0.082778,-1.813686,-1.800015,-0.645662,0.1033,0.993975,0.082684,0.07189,-0.111498,0.230869,-0.064703,47.103088,23.234863,-3.087158,,,,,,,
1532483317,1.626275,-0.080914,-1.770406,-2.418354,-1.26222,-0.118707,0.99519,0.080826,0.055268,-0.048931,0.16948,-0.122316,47.123657,23.287872,-3.016663,,,,,,,
1532483317,1.599087,-0.082779,-1.712975,-3.150707,-1.750589,-0.283387,0.996172,0.082684,0.02819,-0.087344,0.096454,-0.088432,47.025452,23.322571,-3.049072,,,,,,,
1532483317,1.566413,-0.089938,-1.643198,-3.649787,-2.049279,-0.46243,0.995944,0.089817,-0.004366,-0.076327,0.067272,0.032732,46.649719,23.838013,-3.007507,,,,,,,
1532483317,1.530113,-0.101352,-1.568753,-3.749399,-2.227965,-0.479879,0.994041,0.101178,-0.040463,-0.075691,0.038333,0.139172,46.634766,24.247742,-3.17572,,,,,,,
1532483317,1.495255,-0.113875,-1.496233,-3.587374,-2.031491,-0.38145,0.990686,0.113629,-0.074981,-0.096109,-0.008847,0.205749,46.473083,24.739899,-3.176025,,,,,,,
1532483317,1.468122,-0.126737,-1.428823,-3.292893,-1.628391,-0.317064,0.986752,0.126398,-0.101672,-0.103359,-0.017328,0.257357,46.000671,25.169373,-3.248596,,,,,,,
1532483317,1.448914,-0.139777,-1.367827,-2.99728,-1.223931,-0.315476,0.982897,0.139322,-0.120395,-0.096834,-0.001932,0.217807,45.640076,25.785614,-3.002563,,,,,,,
1532483317,1.437159,-0.153806,-1.311525,-2.806212,-0.889593,-0.358558,0.97938,0.153201,-0.131666,-0.087367,0.010297,0.157545,45.556885,26.003143,-2.7276,,,,,,,
1532483317,1.432974,-0.169448,-1.257977,-2.712206,-0.482864,-0.455054,0.976327,0.168638,-0.135419,-0.061609,0.03261,0.110455,45.419128,26.341827,-2.065857,,,,,,,
1532483317,1.434772,-0.186457,-1.207433,-2.513014,-0.248296,-0.530448,0.973586,0.185379,-0.133254,-0.062667,0.036484,0.07376,45.138672,26.704773,-1.303955,,,,,,,
1532483317,1.443827,-0.203256,-1.161362,-2.269249,0.132774,-0.545805,0.971527,0.20186,-0.124022,-0.040542,0.048812,0.055586,44.86145,27.161194,0.049622,,,,,,,
1532483317,1.457197,-0.22014,-1.121018,-1.959954,0.309138,-0.642035,0.969573,0.218366,-0.110619,-0.022979,0.072314,0.019829,44.722839,27.304291,1.086914,,,,,,,
1532483317,1.47293,-0.238063,-1.086154,-1.705635,0.416398,-0.756557,0.967143,0.235821,-0.094954,0.002111,0.096058,-0.049958,44.150146,27.626953,2.651978,,,,,,,
1532483318,1.488201,-0.257409,-1.055994,-1.462616,0.384439,-0.886872,0.963752,0.254576,-0.079783,0.04377,0.080736,-0.087164,43.88031,28.4487,3.70752,,,,,,,
1532483318,1.502703,-0.278449,-1.031069,-1.177476,0.425799,-0.994828,0.959251,0.274864,-0.06542,0.105004,0.057182,-0.079264,43.11377,28.879944,4.96814,,,,,,,
1532483318,1.518644,-0.299468,-1.0124,-0.832797,0.614486,-0.987126,0.95419,0.295012,-0.049808,0.198153,0.054857,-0.045651,42.636719,29.755859,6.021973,,,,,,,
1532483318,1.537644,-0.318296,-1.000862,-0.453901,0.877149,-0.873071,0.949244,0.312948,-0.031481,0.320974,0.076242,-0.024229,42.106201,30.237946,7.130371,,,,,,,
1532483318,1.558716,-0.334198,-0.996992,-0.056968,1.030285,-0.749686,0.944601,0.328012,-0.011411,0.410456,0.119773,-0.031206,41.342407,30.841492,7.945923,,,,,,,
1532483318,1.577079,-0.348201,-1.000586,0.281695,0.935913,-0.689201,0.939966,0.341207,0.005906,0.458808,0.118296,-0.094544,40.390747,31.408691,8.775269,,,,,,,
1532483318,1.589426,-0.36148,-1.010106,0.548403,0.679907,-0.645623,0.935208,0.353659,0.017425,0.376163,-0.0035,-0.123504,40.021973,32.012817,9.316162,,,,,,,
1532483318,1.594718,-0.373722,-1.024119,0.714319,0.427811,-0.563226,0.930704,0.365083,0.022268,0.223989,-0.139955,-0.097631,39.387268,32.634918,9.511475,,,,,,,
1532483318,1.594196,-0.383376,-1.039815,0.728491,0.181432,-0.391732,0.927149,0.374053,0.021699,0.112935,-0.221237,-0.037096,38.94574,33.305023,9.335144,,,,,,,
1532483318,1.590355,-0.389326,-1.053876,0.607537,0.006117,-0.229564,0.924984,0.379565,0.018094,0.026646,-0.272128,0.041507,38.78009,33.926056,8.967834,,,,,,,
1532483318,1.585165,-0.392347,-1.064977,0.460258,-0.071329,-0.088635,0.923914,0.382358,0.013276,-0.008631,-0.270176,0.114394,38.491333,34.037201,8.670654,,,,,,,
1532483318,1.582403,-0.392051,-1.073164,0.314285,0.096662,0.085493,0.924061,0.382084,0.010726,-0.030888,-0.260456,0.162248,38.598877,34.468201,8.299561,,,,,,,
1532483318,1.586585,-0.388263,-1.076913,0.058449,0.394163,0.263783,0.925449,0.378582,0.014613,-0.052707,-0.227565,0.180974,38.661499,34.035736,8.125916,,,,,,,
1532483318,1.599183,-0.380645,-1.073317,-0.326417,0.612718,0.456584,0.928047,0.371519,0.026351,-0.02729,-0.155912,0.145051,38.788696,33.954834,8.410278,,,,,,,
1532483318,1.615959,-0.368226,-1.060854,-0.802143,0.59815,0.680787,0.932012,0.359961,0.042121,0.008464,-0.078695,0.062264,38.951172,33.488617,9.040649,,,,,,,
,,,,,,,,,,,,,,,,42.47388,-83.404937,222.84305,0.410293,-1,1532483318,
1532483318,1.633246,-0.35182,-1.037022,-1.392379,0.284206,0.774883,0.936913,0.344607,0.058586,0.084419,0.045316,-0.048134,39.18512,32.91391,9.912415,,,,,,,
1532483318,1.645453,-0.333656,-1.000396,-2.036407,-0.186799,0.789571,0.942215,0.3275,0.070474,0.105194,0.121414,-0.128137,39.332458,31.694794,11.094482,,,,,,,
1532483318,1.65223,-0.314901,-0.95166,-2.599327,-0.570147,0.730436,0.947672,0.309723,0.077343,0.076681,0.148941,-0.143353,40.124878,30.509277,12.004944,,,,,,,
1532483318,1.6549,-0.296557,-0.89385,-2.96429,-0.824533,0.669894,0.952964,0.29223,0.080337,0.024987,0.143302,-0.106338,40.516663,28.972992,12.957153,,,,,,,
1532483318,1.654007,-0.278663,-0.831953,-3.070099,-0.98191,0.640736,0.958093,0.275071,0.079908,-0.054819,0.131515,-0.072508,41.067566,27.960297,14.180481,,,,,,,
1532483318,1.650766,-0.261576,-0.771515,-2.915923,-0.953796,0.592311,0.962892,0.258603,0.077167,-0.138872,0.125384,-0.016819,41.777344,26.163269,14.925232,,,,,,,
1532483318,1.646389,-0.246694,-0.717384,-2.522544,-0.865568,0.50235,0.966952,0.244199,0.073234,-0.211657,0.132266,0.020302,42.30127,24.854248,15.454224,,,,,,,
1532483318,1.642943,-0.235202,-0.673443,-1.975067,-0.591866,0.360494,0.969933,0.23304,0.070099,-0.262917,0.148216,0.061493,43.040344,23.684906,15.829041,,,,,,,
1532483318,1.642572,-0.227932,-0.640922,-1.411106,-0.279719,0.188225,0.971624,0.225964,0.069859,-0.275502,0.164203,0.087459,43.543579,22.319397,16.334534,,,,,,,
1532483318,1.645798,-0.224052,-0.61857,-0.944088,0.020288,0.078182,0.97226,0.222182,0.073058,-0.261994,0.157426,0.107468,43.438232,21.503662,16.672668,,,,,,,
1532483318,1.65208,-0.222528,-0.604013,-0.606856,0.224412,-0.033419,0.972118,0.220696,0.079191,-0.238903,0.133506,0.08333,43.743042,21.299866,17.189026,,,,,,,
1532483318,1.660459,-0.22487,-0.593902,-0.426374,0.356475,-0.246997,0.970903,0.222979,0.087288,-0.20685,0.150586,0.076683,43.644409,21.175751,17.750183,,,,,,,
1532483318,1.670363,-0.232398,-0.585703,-0.351306,0.434415,-0.516893,0.968293,0.230312,0.096729,-0.184938,0.146626,0.057293,43.674255,21.487366,18.121277,,,,,,,
1532483318,1.679219,-0.244799,-0.577123,-0.366368,0.248308,-0.735297,0.964485,0.242362,0.104983,-0.138084,0.130685,0.023053,43.017212,21.587097,18.672119,,,,,,,
1532483318,1.68383,-0.260496,-0.566354,-0.481257,-0.006228,-0.905648,0.960092,0.25756,0.108987,-0.107293,0.105309,-0.007943,42.634277,21.893127,18.957306,,,,,,,
1532483318,1.684487,-0.278845,-0.552227,-0.643575,-0.225896,-1.045726,0.955163,0.275246,0.109064,-0.099282,0.040596,-0.006647,42.043579,22.253204,19.297852,,,,,,,
1532483318,1.684097,-0.29896,-0.533241,-0.889854,-0.37575,-1.138923,0.949512,0.294526,0.108043,-0.085086,-0.010698,0.010686,41.735291,22.955872,19.295074,,,,,,,
1532483318,1.681744,-0.320477,-0.508698,-1.137897,-0.564857,-1.250449,0.943246,0.315019,0.105082,-0.054223,-0.022768,0.004445,41.235168,23.601532,19.385712,,,,,,,
1532483318,1.678289,-0.343862,-0.479679,-1.292353,-0.70493,-1.358053,0.936022,0.337125,0.101005,-0.027864,-0.035672,0.035988,40.988098,24.11264,19.543701,,,,,,,
1532483318,1.673296,-0.368999,-0.449583,-1.254888,-0.787487,-1.423868,0.927789,0.360682,0.095432,0.002539,-0.061411,0.063228,40.906738,24.858734,19.672546,,,,,,,
1532483318,1.668545,-0.395174,-0.421646,-1.105486,-0.7425,-1.444602,0.91852,0.384969,0.090071,0.028257,-0.099401,0.102633,40.317566,25.231537,19.831696,,,,,,,
1532483318,1.66436,-0.421528,-0.39694,-0.94949,-0.683905,-1.418307,0.90847,0.409155,0.085249,0.07383,-0.126226,0.117495,39.948303,25.728241,19.880463,,,,,,,
1532483318,1.661019,-0.447799,-0.374945,-0.849721,-0.585996,-1.40552,0.897732,0.432983,0.081216,0.102878,-0.142562,0.1314,39.466736,26.52594,19.701721,,,,,,,
1532483318,1.659408,-0.474583,-0.353881,-0.818363,-0.557108,-1.433607,0.88599,0.456968,0.078715,0.160626,-0.148267,0.131658,38.968628,27.171692,19.548157,,,,,,,
1532483318,1.657943,-0.500819,-0.332161,-0.870443,-0.586159,-1.378178,0.873857,0.480144,0.076347,0.177763,-0.172313,0.106987,38.437683,27.889435,19.673706,,,,,,,
1532483318,1.657385,-0.525897,-0.308783,-0.938558,-0.626945,-1.318813,0.86163,0.501989,0.074794,0.202441,-0.190221,0.097752,37.735962,28.750244,19.708191,,,,,,,
1532483318,1.657082,-0.548602,-0.283523,-1.015694,-0.688365,-1.171322,0.850076,0.521495,0.073532,0.224951,-0.198222,0.088531,37.33429,28.810852,19.856018,,,,,,,
1532483318,1.656646,-0.567921,-0.256681,-1.079396,-0.76901,-1.00028,0.839913,0.53788,0.072284,0.246955,-0.211159,0.096112,37.240479,29.558838,19.984528,,,,,,,
1532483318,1.655748,-0.583823,-0.228081,-1.172663,-0.857083,-0.84254,0.831349,0.551218,0.070795,0.302806,-0.18258,0.099386,37.057251,29.925812,19.898621,,,,,,,
1532483318,1.655409,-0.597083,-0.196577,-1.296853,-0.923665,-0.742703,0.824017,0.562232,0.069889,0.406573,-0.089607,0.098522,36.911621,29.786285,20.09613,,,,,,,
1532483318,1.6549,-0.609156,-0.163597,-1.293067,-0.987589,-0.713148,0.817229,0.572175,0.068894,0.485551,-0.030595,0.128936,36.731323,29.751465,20.188354,,,,,,,
1532483318,1.652243,-0.621425,-0.132846,-1.139687,-1.046884,-0.713044,0.810351,0.582195,0.066147,0.524244,-0.050807,0.158783,36.7547,29.534088,20.208466,,,,,,,
1532483318,1.647139,-0.632583,-0.106306,-0.973748,-1.022769,-0.586666,0.804151,0.59123,0.06151,0.415134,-0.204496,0.165846,36.787537,29.677521,20.196899,,,,,,,
1532483318,1.64216,-0.639387,-0.082965,-0.886739,-0.891178,-0.281098,0.800416,0.596703,0.057218,0.2303,-0.427285,0.147921,37.058716,29.644012,20.034821,,,,,,,
1532483318,1.638677,-0.638318,-0.06237,-0.792949,-0.720968,0.178107,0.801246,0.595846,0.054473,0.069939,-0.571859,0.12822,37.341309,29.166962,19.855194,,,,,,,
1532483318,1.636744,-0.627875,-0.045578,-0.656722,-0.525208,0.644531,0.807515,0.587427,0.053331,0.014201,-0.547693,0.118773,37.632141,28.837891,19.829987,,,,,,,
1532483319,1.634578,-0.610629,-0.033464,-0.475318,-0.441143,0.91415,0.817618,0.573383,0.05222,0.025094,-0.419483,0.111599,38.222168,28.168823,19.950745,,,,,,,
1532483319,1.631382,-0.59092,-0.02642,-0.274375,-0.288051,0.982124,0.828902,0.557125,0.050281,0.04973,-0.300594,0.10693,39.013367,27.526611,19.66333,,,,,,,
1532483319,1.630142,-0.571259,-0.024265,-0.075658,-0.006039,0.990016,0.839737,0.540691,0.049894,0.076965,-0.228023,0.095263,39.72876,26.373566,19.604126,,,,,,,
1532483319,1.63199,-0.551026,-0.026024,0.057734,0.243874,1.020094,0.85039,0.523562,0.052104,0.138181,-0.190951,0.055669,39.878174,25.452728,19.689056,,,,,,,
1532483319,1.636545,-0.531798,-0.030024,0.131234,0.374013,0.952749,0.860032,0.507084,0.056627,0.170471,-0.144596,0.0166,40.242249,24.635864,19.786652,,,,,,,
1532483319,1.641658,-0.512899,-0.034325,0.107337,0.373852,0.978974,0.869136,0.490706,0.061691,0.146855,-0.141096,-0.059265,40.317078,23.727081,20.121246,,,,,,,
1532483319,1.647939,-0.492274,-0.037335,0.028769,0.381736,1.084197,0.878636,0.472631,0.067915,0.086482,-0.171835,-0.077361,40.675293,23.072052,20.33316,,,,,,,
1532483319,1.654338,-0.469492,-0.038736,-0.064581,0.348154,1.184709,0.888685,0.452433,0.074416,0.040911,-0.165873,-0.108397,41.255615,22.59903,20.399139,,,,,,,
1532483319,1.660246,-0.444782,-0.039141,-0.089467,0.279675,1.269139,0.899093,0.430261,0.080639,-0.000579,-0.150811,-0.107326,41.447693,21.549469,20.798187,,,,,,,
1532483319,1.664929,-0.418712,-0.040131,-0.065883,0.259268,1.320536,0.909566,0.406584,0.085873,-0.02509,-0.135481,-0.105984,42.037415,20.860321,21.061066,,,,,,,
1532483319,1.669789,-0.39273,-0.041936,-0.02159,0.29779,1.283128,0.919342,0.382712,0.091306,-0.044922,-0.085776,-0.100095,42.352722,19.273163,21.324066,,,,,,,
1532483319,1.675264,-0.368332,-0.045255,0.063846,0.374836,1.20613,0.927841,0.36006,0.097284,-0.06874,-0.037413,-0.089639,42.661194,18.095856,21.5242,,,,,,,
1532483319,1.680849,-0.34544,-0.050715,0.171297,0.386959,1.151529,0.935232,0.338611,0.103343,-0.075536,-0.004107,-0.09051,42.946289,17.434143,21.717346,,,,,,,
1532483319,1.68701,-0.323997,-0.058078,0.256687,0.469311,1.076686,0.941574,0.318358,0.109919,-0.09111,0.024599,-0.085093,43.298706,16.876007,21.77301,,,,,,,
,,,,,,,,,,,,,,,,42.473864,-83.404933,251.630522,0.062665,-1,1532483319,
1532483319,1.694274,-0.304817,-0.066868,0.329942,0.5114,0.968432,0.946637,0.300118,0.117487,-0.085172,0.082725,-0.069406,43.126953,15.841736,22.362488,,,,,,,
1532483319,1.701609,-0.287614,-0.077199,0.417552,0.503389,0.893171,0.950728,0.283665,0.125082,-0.079283,0.114773,-0.060186,43.31958,15.283142,22.573029,,,,,,,
1532483319,1.706706,-0.272698,-0.089733,0.556177,0.373421,0.770223,0.954165,0.269331,0.130485,-0.068331,0.130602,-0.059409,43.220276,14.640381,22.720245,,,,,,,
1532483319,1.709008,-0.261269,-0.104768,0.684779,0.294644,0.610099,0.956848,0.258307,0.133096,-0.084473,0.124246,-0.053353,43.280884,14.619202,22.93161,,,,,,,
1532483319,1.710738,-0.252882,-0.120716,0.710625,0.283621,0.476305,0.958728,0.250196,0.135049,-0.063007,0.142672,-0.045739,43.324097,14.464417,22.985291,,,,,,,
1532483319,1.711845,-0.246864,-0.135925,0.67544,0.189467,0.365576,0.960052,0.244364,0.13632,-0.015929,0.186453,-0.0287,43.151306,14.535614,23.044067,,,,,,,
1532483319,1.709744,-0.242248,-0.15015,0.628779,0.002564,0.305302,0.961443,0.239885,0.134457,0.035734,0.190199,-0.025784,43.236877,14.166107,22.960083,,,,,,,
1532483319,1.705387,-0.238726,-0.162131,0.49908,-0.097268,0.239836,0.962851,0.236465,0.130379,0.097528,0.220063,-0.025521,43.297729,14.374207,22.787933,,,,,,,
1532483319,1.700433,-0.235435,-0.169935,0.260053,-0.208099,0.215102,0.964252,0.233266,0.125707,0.121289,0.276957,-0.037527,43.571411,14.230927,22.45047,,,,,,,
1532483319,1.692807,-0.232301,-0.173674,0.120642,-0.424956,0.16273,0.965903,0.230217,0.118438,0.228662,0.371651,-0.027893,43.823853,14.082184,22.176575,,,,,,,
1532483319,1.683367,-0.230278,-0.174433,-0.068021,-0.441761,0.056245,0.967439,0.228248,0.109368,0.350692,0.448189,-0.022683,43.959656,14.308105,21.759247,,,,,,,
1532483319,1.674958,-0.230939,-0.167524,-0.522702,-0.578543,-0.172362,0.968174,0.228892,0.101213,0.3811,0.457937,-0.06061,44.116394,14.487976,21.39093,,,,,,,
1532483319,1.664005,-0.236972,-0.149584,-1.017954,-0.857364,-0.505639,0.967832,0.23476,0.090472,0.229037,0.347622,-0.09476,44.259949,14.158508,21.06601,,,,,,,
1532483319,1.65015,-0.247734,-0.124394,-1.229387,-1.088565,-0.696632,0.966418,0.245208,0.07685,0.001676,0.144746,-0.032569,44.854431,14.079895,20.434937,,,,,,,
1532483319,1.632989,-0.259768,-0.099522,-1.090456,-1.18739,-0.660762,0.96458,0.256857,0.060068,-0.234019,-0.072424,0.089316,44.872498,14.380432,20.088776,,,,,,,
1532483319,1.617144,-0.26977,-0.081145,-0.708678,-0.927215,-0.470006,0.962796,0.26651,0.044656,-0.285321,-0.111099,0.230933,45.0354,14.344208,19.439911,,,,,,,
1532483319,1.604188,-0.276134,-0.071635,-0.306904,-0.689398,-0.26519,0.961579,0.272638,0.03212,-0.263871,-0.025644,0.298034,45.524536,14.243317,18.843262,,,,,,,
1532483319,1.595367,-0.278897,-0.068306,-0.088244,-0.348714,-0.067139,0.961069,0.275295,0.023619,-0.208841,0.030369,0.32091,45.756104,14.427399,18.452972,,,,,,,
1532483319,1.593991,-0.278166,-0.06684,-0.095673,0.059857,0.088125,0.961301,0.274593,0.022301,-0.132565,0.105992,0.302619,46.081909,14.795898,17.890137,,,,,,,
1532483319,1.600233,-0.275466,-0.061682,-0.38421,0.32817,0.132628,0.961881,0.271996,0.028323,-0.054425,0.186012,0.222898,45.747864,14.341797,18.182556,,,,,,,
1532483319,1.611054,-0.27277,-0.04783,-0.852185,0.320128,0.103567,0.962247,0.2694,0.038759,-0.018979,0.25541,0.120162,45.78894,14.005798,18.754425,,,,,,,
1532483319,1.621003,-0.269816,-0.024991,-1.25637,0.122871,0.089516,0.962604,0.266555,0.04837,-0.046695,0.246217,0.022736,45.538879,13.610016,19.078888,,,,,,,
1532483319,1.628385,-0.267774,0.0044,-1.50309,-0.111895,-0.03393,0.962763,0.264585,0.055506,-0.083643,0.206774,-0.004801,45.387878,12.727081,19.538452,,,,,,,
1532483319,1.631978,-0.268598,0.035992,-1.507888,-0.310064,-0.171301,0.962339,0.26538,0.058951,-0.133085,0.176515,0.000283,45.567017,12.372711,19.694977,,,,,,,
1532483319,1.632581,-0.270896,0.065444,-1.350316,-0.370154,-0.226502,0.961692,0.267595,0.059494,-0.196891,0.114073,0.029923,45.803345,11.81601,19.854553,,,,,,,
1532483319,1.632463,-0.274985,0.091058,-1.152741,-0.336444,-0.319969,0.960599,0.271533,0.059312,-0.221555,0.082548,0.045638,45.929871,11.518616,19.818665,,,,,,,
1532483319,1.632962,-0.281817,0.113297,-0.982879,-0.258903,-0.473302,0.958696,0.278101,0.059675,-0.222245,0.086492,0.050646,45.893982,11.226196,19.781799,,,,,,,
1532483319,1.633868,-0.292758,0.131365,-0.740878,-0.175722,-0.671203,0.955547,0.288594,0.060348,-0.192425,0.093975,0.05417,45.845398,11.363434,19.703949,,,,,,,
1532483319,1.634579,-0.30768,0.143445,-0.400338,-0.094642,-0.841933,0.9511,0.302848,0.060746,-0.156529,0.06678,0.054031,45.826172,11.811188,19.679993,,,,,,,
1532483319,1.636265,-0.326001,0.148244,-0.034693,0.079945,-0.992612,0.945301,0.320257,0.061976,-0.116718,0.028284,0.079809,45.318726,12.244507,19.889038,,,,,,,
